{
  "直隶_大兴县": { "lat": 39.90, "lng": 116.40, "province": "直隶", "county": "大兴县" },
  "直隶_宛平县": { "lat": 39.88, "lng": 116.35, "province": "直隶", "county": "宛平县" },
  "直隶_天津县": { "lat": 39.13, "lng": 117.20, "province": "直隶", "county": "天津县" },
  "直隶_保定县": { "lat": 38.87, "lng": 115.48, "province": "直隶", "county": "保定县" },
  "直隶_河间县": { "lat": 38.45, "lng": 116.10, "province": "直隶", "county": "河间县" },
  "直隶_永平府": { "lat": 39.88, "lng": 119.15, "province": "直隶", "county": "永平府" },
  "江苏_吴县": { "lat": 31.31, "lng": 120.63, "province": "江苏", "county": "吴县" },
  "江苏_武进县": { "lat": 31.70, "lng": 119.97, "province": "江苏", "county": "武进县" },
  "江苏_上元县": { "lat": 32.06, "lng": 118.80, "province": "江苏", "county": "上元县" },
  "江苏_江宁县": { "lat": 31.96, "lng": 118.78, "province": "江苏", "county": "江宁县" },
  "江苏_元和县": { "lat": 31.30, "lng": 120.60, "province": "江苏", "county": "元和县" },
  "江苏_长洲县": { "lat": 31.29, "lng": 120.62, "province": "江苏", "county": "长洲县" },
  "江苏_无锡县": { "lat": 31.57, "lng": 120.30, "province": "江苏", "county": "无锡县" },
  "江苏_丹徒县": { "lat": 32.20, "lng": 119.44, "province": "江苏", "county": "丹徒县" },
  "江苏_山阳县": { "lat": 33.50, "lng": 119.14, "province": "江苏", "county": "山阳县" },
  "浙江_钱塘县": { "lat": 30.27, "lng": 120.15, "province": "浙江", "county": "钱塘县" },
  "浙江_仁和县": { "lat": 30.29, "lng": 120.17, "province": "浙江", "county": "仁和县" },
  "浙江_鄞县": { "lat": 29.82, "lng": 121.54, "province": "浙江", "county": "鄞县" },
  "浙江_绍兴县": { "lat": 30.00, "lng": 120.58, "province": "浙江", "county": "绍兴县" },
  "浙江_嘉兴县": { "lat": 30.77, "lng": 120.76, "province": "浙江", "county": "嘉兴县" },
  "浙江_湖州府": { "lat": 30.87, "lng": 120.09, "province": "浙江", "county": "湖州府" },
  "浙江_金华县": { "lat": 29.10, "lng": 119.64, "province": "浙江", "county": "金华县" },
  "浙江_温州府": { "lat": 28.02, "lng": 120.70, "province": "浙江", "county": "温州府" },
  "安徽_歙县": { "lat": 29.86, "lng": 118.44, "province": "安徽", "county": "歙县" },
  "安徽_合肥县": { "lat": 31.82, "lng": 117.23, "province": "安徽", "county": "合肥县" },
  "安徽_桐城县": { "lat": 31.07, "lng": 117.02, "province": "安徽", "county": "桐城县" },
  "安徽_怀宁县": { "lat": 30.53, "lng": 117.05, "province": "安徽", "county": "怀宁县" },
  "安徽_当涂县": { "lat": 31.57, "lng": 118.49, "province": "安徽", "county": "当涂县" },
  "安徽_凤阳县": { "lat": 32.87, "lng": 117.53, "province": "安徽", "county": "凤阳县" },
  "安徽_芜湖县": { "lat": 31.35, "lng": 118.37, "province": "安徽", "county": "芜湖县" },
  "江西_南昌县": { "lat": 28.68, "lng": 115.86, "province": "江西", "county": "南昌县" },
  "江西_婺源县": { "lat": 29.25, "lng": 117.86, "province": "江西", "county": "婺源县" },
  "江西_临川县": { "lat": 27.95, "lng": 116.36, "province": "江西", "county": "临川县" },
  "江西_庐陵县": { "lat": 27.12, "lng": 114.98, "province": "江西", "county": "庐陵县" },
  "江西_九江府": { "lat": 29.72, "lng": 115.99, "province": "江西", "county": "九江府" },
  "江西_赣县": { "lat": 25.86, "lng": 114.94, "province": "江西", "county": "赣县" },
  "湖北_江夏县": { "lat": 30.55, "lng": 114.31, "province": "湖北", "county": "江夏县" },
  "湖北_黄冈县": { "lat": 30.45, "lng": 114.87, "province": "湖北", "county": "黄冈县" },
  "湖北_襄阳府": { "lat": 32.01, "lng": 112.15, "province": "湖北", "county": "襄阳府" },
  "湖北_宜昌府": { "lat": 30.70, "lng": 111.28, "province": "湖北", "county": "宜昌府" },
  "湖北_荆州府": { "lat": 30.33, "lng": 112.23, "province": "湖北", "county": "荆州府" },
  "湖南_长沙县": { "lat": 28.23, "lng": 112.98, "province": "湖南", "county": "长沙县" },
  "湖南_湘乡县": { "lat": 27.73, "lng": 112.18, "province": "湖南", "county": "湘乡县" },
  "湖南_湘潭县": { "lat": 27.75, "lng": 112.92, "province": "湖南", "county": "湘潭县" },
  "湖南_岳州府": { "lat": 29.38, "lng": 113.10, "province": "湖南", "county": "岳州府" },
  "湖南_衡州府": { "lat": 26.90, "lng": 112.60, "province": "湖南", "county": "衡州府" },
  "湖南_宝庆府": { "lat": 27.25, "lng": 111.45, "province": "湖南", "county": "宝庆府" },
  "河南_祥符县": { "lat": 34.80, "lng": 114.35, "province": "河南", "county": "祥符县" },
  "河南_洛阳县": { "lat": 34.62, "lng": 112.45, "province": "河南", "county": "洛阳县" },
  "河南_开封县": { "lat": 34.78, "lng": 114.30, "province": "河南", "county": "开封县" },
  "河南_商丘县": { "lat": 34.45, "lng": 115.65, "province": "河南", "county": "商丘县" },
  "河南_彰德府": { "lat": 36.10, "lng": 114.38, "province": "河南", "county": "彰德府" },
  "河南_南阳府": { "lat": 33.00, "lng": 112.53, "province": "河南", "county": "南阳府" },
  "山东_历城县": { "lat": 36.65, "lng": 117.00, "province": "山东", "county": "历城县" },
  "山东_诸城县": { "lat": 36.00, "lng": 119.41, "province": "山东", "county": "诸城县" },
  "山东_益都县": { "lat": 36.68, "lng": 118.48, "province": "山东", "county": "益都县" },
  "山东_曲阜县": { "lat": 35.58, "lng": 116.98, "province": "山东", "county": "曲阜县" },
  "山东_济宁州": { "lat": 35.42, "lng": 116.59, "province": "山东", "county": "济宁州" },
  "山东_蓬莱县": { "lat": 37.82, "lng": 120.75, "province": "山东", "county": "蓬莱县" },
  "山东_聊城县": { "lat": 36.45, "lng": 115.97, "province": "山东", "county": "聊城县" },
  "山西_太原县": { "lat": 37.76, "lng": 112.50, "province": "山西", "county": "太原县" },
  "山西_阳曲县": { "lat": 37.87, "lng": 112.47, "province": "山西", "county": "阳曲县" },
  "山西_榆次县": { "lat": 37.68, "lng": 112.75, "province": "山西", "county": "榆次县" },
  "山西_平遥县": { "lat": 37.20, "lng": 112.17, "province": "山西", "county": "平遥县" },
  "山西_临汾县": { "lat": 36.08, "lng": 111.52, "province": "山西", "county": "临汾县" },
  "山西_大同府": { "lat": 40.08, "lng": 113.30, "province": "山西", "county": "大同府" },
  "陕西_长安县": { "lat": 34.27, "lng": 108.95, "province": "陕西", "county": "长安县" },
  "陕西_咸宁县": { "lat": 34.25, "lng": 109.00, "province": "陕西", "county": "咸宁县" },
  "陕西_渭南县": { "lat": 34.50, "lng": 109.50, "province": "陕西", "county": "渭南县" },
  "陕西_凤翔府": { "lat": 34.52, "lng": 107.38, "province": "陕西", "county": "凤翔府" },
  "陕西_汉中府": { "lat": 33.07, "lng": 107.03, "province": "陕西", "county": "汉中府" },
  "陕西_延安府": { "lat": 36.60, "lng": 109.48, "province": "陕西", "county": "延安府" },
  "甘肃_皋兰县": { "lat": 36.05, "lng": 103.82, "province": "甘肃", "county": "皋兰县" },
  "甘肃_凉州府": { "lat": 37.93, "lng": 102.63, "province": "甘肃", "county": "凉州府" },
  "甘肃_肃州": { "lat": 39.73, "lng": 98.50, "province": "甘肃", "county": "肃州" },
  "甘肃_甘州府": { "lat": 38.93, "lng": 100.45, "province": "甘肃", "county": "甘州府" },
  "甘肃_巩昌府": { "lat": 35.03, "lng": 104.63, "province": "甘肃", "county": "巩昌府" },
  "四川_成都县": { "lat": 30.67, "lng": 104.07, "province": "四川", "county": "成都县" },
  "四川_华阳县": { "lat": 30.55, "lng": 104.10, "province": "四川", "county": "华阳县" },
  "四川_巴县": { "lat": 29.55, "lng": 106.55, "province": "四川", "county": "巴县" },
  "四川_绵州": { "lat": 31.47, "lng": 104.75, "province": "四川", "county": "绵州" },
  "四川_嘉定府": { "lat": 29.58, "lng": 103.75, "province": "四川", "county": "嘉定府" },
  "四川_夔州府": { "lat": 31.02, "lng": 108.68, "province": "四川", "county": "夔州府" },
  "广东_番禺县": { "lat": 23.13, "lng": 113.26, "province": "广东", "county": "番禺县" },
  "广东_南海县": { "lat": 23.13, "lng": 113.14, "province": "广东", "county": "南海县" },
  "广东_广州府": { "lat": 23.13, "lng": 113.26, "province": "广东", "county": "广州府" },
  "广东_潮州府": { "lat": 23.67, "lng": 116.63, "province": "广东", "county": "潮州府" },
  "广东_肇庆府": { "lat": 23.05, "lng": 112.45, "province": "广东", "county": "肇庆府" },
  "广东_惠州府": { "lat": 23.08, "lng": 114.40, "province": "广东", "county": "惠州府" },
  "广东_嘉应州": { "lat": 24.30, "lng": 116.12, "province": "广东", "county": "嘉应州" },
  "广西_临桂县": { "lat": 25.27, "lng": 110.30, "province": "广西", "county": "临桂县" },
  "广西_桂林府": { "lat": 25.27, "lng": 110.29, "province": "广西", "county": "桂林府" },
  "广西_柳州府": { "lat": 24.33, "lng": 109.42, "province": "广西", "county": "柳州府" },
  "广西_苍梧县": { "lat": 23.48, "lng": 111.32, "province": "广西", "county": "苍梧县" },
  "广西_南宁府": { "lat": 22.82, "lng": 108.35, "province": "广西", "county": "南宁府" },
  "云南_昆明县": { "lat": 25.05, "lng": 102.70, "province": "云南", "county": "昆明县" },
  "云南_大理府": { "lat": 25.60, "lng": 100.23, "province": "云南", "county": "大理府" },
  "云南_丽江府": { "lat": 26.87, "lng": 100.23, "province": "云南", "county": "丽江府" },
  "云南_曲靖府": { "lat": 25.50, "lng": 103.80, "province": "云南", "county": "曲靖府" },
  "贵州_贵筑县": { "lat": 26.65, "lng": 106.63, "province": "贵州", "county": "贵筑县" },
  "贵州_遵义府": { "lat": 27.70, "lng": 106.90, "province": "贵州", "county": "遵义府" },
  "贵州_镇远府": { "lat": 27.05, "lng": 108.42, "province": "贵州", "county": "镇远府" },
  "贵州_安顺府": { "lat": 26.25, "lng": 105.95, "province": "贵州", "county": "安顺府" },
  "福建_闽县": { "lat": 26.07, "lng": 119.32, "province": "福建", "county": "闽县" },
  "福建_侯官县": { "lat": 26.05, "lng": 119.30, "province": "福建", "county": "侯官县" },
  "福建_泉州府": { "lat": 24.91, "lng": 118.59, "province": "福建", "county": "泉州府" },
  "福建_漳州府": { "lat": 24.52, "lng": 117.65, "province": "福建", "county": "漳州府" },
  "福建_汀州府": { "lat": 25.85, "lng": 116.35, "province": "福建", "county": "汀州府" },
  "福建_延平府": { "lat": 26.63, "lng": 118.17, "province": "福建", "county": "延平府" },
  "奉天_承德县": { "lat": 41.80, "lng": 123.43, "province": "奉天", "county": "承德县" },
  "奉天_辽阳州": { "lat": 41.27, "lng": 123.18, "province": "奉天", "county": "辽阳州" },
  "奉天_锦州府": { "lat": 41.13, "lng": 121.13, "province": "奉天", "county": "锦州府" },
  "吉林_长春县": { "lat": 43.88, "lng": 125.32, "province": "吉林", "county": "长春县" },
  "吉林_吉林府": { "lat": 43.88, "lng": 126.55, "province": "吉林", "county": "吉林府" },
  "吉林_宁古塔": { "lat": 44.30, "lng": 129.20, "province": "吉林", "county": "宁古塔" },
  "黑龙江_呼兰县": { "lat": 45.98, "lng": 126.95, "province": "黑龙江", "county": "呼兰县" },
  "黑龙江_齐齐哈尔": { "lat": 47.35, "lng": 123.95, "province": "黑龙江", "county": "齐齐哈尔" },
  "黑龙江_爱珲": { "lat": 49.98, "lng": 127.48, "province": "黑龙江", "county": "爱珲" },
  "蒙古_归化城": { "lat": 40.82, "lng": 111.65, "province": "蒙古", "county": "归化城" },
  "蒙古_库伦": { "lat": 47.92, "lng": 106.92, "province": "蒙古", "county": "库伦" },
  "蒙古_乌里雅苏台": { "lat": 47.75, "lng": 96.85, "province": "蒙古", "county": "乌里雅苏台" },
  "新疆_迪化县": { "lat": 43.80, "lng": 87.60, "province": "新疆", "county": "迪化县" },
  "新疆_伊犁": { "lat": 43.92, "lng": 81.32, "province": "新疆", "county": "伊犁" },
  "新疆_喀什噶尔": { "lat": 39.47, "lng": 75.98, "province": "新疆", "county": "喀什噶尔" },
  "新疆_哈密": { "lat": 42.83, "lng": 93.52, "province": "新疆", "county": "哈密" },
  "西藏_拉萨": { "lat": 29.65, "lng": 91.12, "province": "西藏", "county": "拉萨" },
  "西藏_日喀则": { "lat": 29.27, "lng": 88.88, "province": "西藏", "county": "日喀则" },
  "青海_西宁县": { "lat": 36.62, "lng": 101.78, "province": "青海", "county": "西宁县" },
  "台湾_台湾县": { "lat": 23.00, "lng": 120.20, "province": "台湾", "county": "台湾县" },
  "台湾_淡水县": { "lat": 25.17, "lng": 121.45, "province": "台湾", "county": "淡水县" },
  "台湾_凤山县": { "lat": 22.62, "lng": 120.35, "province": "台湾", "county": "凤山县" },
  "台湾_彰化县": { "lat": 24.08, "lng": 120.55, "province": "台湾", "county": "彰化县" },
  "江苏_南京市": { "lat": 32.06, "lng": 118.80, "province": "江苏", "county": "南京市" },
  "江苏_上海市": { "lat": 31.23, "lng": 121.47, "province": "江苏", "county": "上海市" },
  "江苏_苏州市": { "lat": 31.30, "lng": 120.58, "province": "江苏", "county": "苏州市" },
  "江苏_无锡市": { "lat": 31.57, "lng": 120.30, "province": "江苏", "county": "无锡市" },
  "江苏_镇江市": { "lat": 32.20, "lng": 119.45, "province": "江苏", "county": "镇江市" },
  "江苏_扬州市": { "lat": 32.40, "lng": 119.41, "province": "江苏", "county": "扬州市" },
  "江苏_徐州市": { "lat": 34.20, "lng": 117.18, "province": "江苏", "county": "徐州市" },
  "浙江_杭州市": { "lat": 30.27, "lng": 120.15, "province": "浙江", "county": "杭州市" },
  "浙江_宁波市": { "lat": 29.87, "lng": 121.55, "province": "浙江", "county": "宁波市" },
  "浙江_温州市": { "lat": 28.02, "lng": 120.70, "province": "浙江", "county": "温州市" },
  "浙江_绍兴市": { "lat": 30.00, "lng": 120.58, "province": "浙江", "county": "绍兴市" },
  "浙江_嘉兴市": { "lat": 30.77, "lng": 120.76, "province": "浙江", "county": "嘉兴市" },
  "浙江_金华市": { "lat": 29.10, "lng": 119.64, "province": "浙江", "county": "金华市" },
  "安徽_合肥市": { "lat": 31.82, "lng": 117.23, "province": "安徽", "county": "合肥市" },
  "安徽_芜湖市": { "lat": 31.35, "lng": 118.37, "province": "安徽", "county": "芜湖市" },
  "安徽_安庆市": { "lat": 30.53, "lng": 117.05, "province": "安徽", "county": "安庆市" },
  "安徽_蚌埠市": { "lat": 32.92, "lng": 117.38, "province": "安徽", "county": "蚌埠市" },
  "安徽_黄山市": { "lat": 29.72, "lng": 118.33, "province": "安徽", "county": "黄山市" },
  "江西_南昌市": { "lat": 28.68, "lng": 115.86, "province": "江西", "county": "南昌市" },
  "江西_九江市": { "lat": 29.72, "lng": 115.99, "province": "江西", "county": "九江市" },
  "江西_景德镇市": { "lat": 29.30, "lng": 117.18, "province": "江西", "county": "景德镇市" },
  "江西_赣州市": { "lat": 25.86, "lng": 114.94, "province": "江西", "county": "赣州市" },
  "湖北_武汉市": { "lat": 30.55, "lng": 114.31, "province": "湖北", "county": "武汉市" },
  "湖北_宜昌市": { "lat": 30.70, "lng": 111.28, "province": "湖北", "county": "宜昌市" },
  "湖北_襄阳市": { "lat": 32.01, "lng": 112.15, "province": "湖北", "county": "襄阳市" },
  "湖北_荆州市": { "lat": 30.33, "lng": 112.23, "province": "湖北", "county": "荆州市" },
  "湖南_长沙市": { "lat": 28.23, "lng": 112.98, "province": "湖南", "county": "长沙市" },
  "湖南_株洲市": { "lat": 27.83, "lng": 113.15, "province": "湖南", "county": "株洲市" },
  "湖南_湘潭市": { "lat": 27.75, "lng": 112.92, "province": "湖南", "county": "湘潭市" },
  "湖南_衡阳市": { "lat": 26.90, "lng": 112.60, "province": "湖南", "county": "衡阳市" },
  "湖南_岳阳市": { "lat": 29.38, "lng": 113.10, "province": "湖南", "county": "岳阳市" },
  "湖南_张家界": { "lat": 29.12, "lng": 110.48, "province": "湖南", "county": "张家界" },
  "四川_成都市": { "lat": 30.67, "lng": 104.07, "province": "四川", "county": "成都市" },
  "四川_重庆市": { "lat": 29.55, "lng": 106.55, "province": "四川", "county": "重庆市" },
  "四川_绵阳市": { "lat": 31.47, "lng": 104.75, "province": "四川", "county": "绵阳市" },
  "四川_乐山市": { "lat": 29.58, "lng": 103.75, "province": "四川", "county": "乐山市" },
  "四川_宜宾市": { "lat": 28.77, "lng": 104.62, "province": "四川", "county": "宜宾市" },
  "贵州_贵阳市": { "lat": 26.65, "lng": 106.63, "province": "贵州", "county": "贵阳市" },
  "贵州_遵义市": { "lat": 27.70, "lng": 106.90, "province": "贵州", "county": "遵义市" },
  "云南_昆明市": { "lat": 25.05, "lng": 102.70, "province": "云南", "county": "昆明市" },
  "云南_大理市": { "lat": 25.60, "lng": 100.23, "province": "云南", "county": "大理市" },
  "云南_丽江市": { "lat": 26.87, "lng": 100.23, "province": "云南", "county": "丽江市" },
  "广东_广州市": { "lat": 23.13, "lng": 113.26, "province": "广东", "county": "广州市" },
  "广东_深圳市": { "lat": 22.55, "lng": 114.10, "province": "广东", "county": "深圳市" },
  "广东_珠海市": { "lat": 22.27, "lng": 113.57, "province": "广东", "county": "珠海市" },
  "广东_汕头市": { "lat": 23.37, "lng": 116.70, "province": "广东", "county": "汕头市" },
  "广东_韶关市": { "lat": 24.80, "lng": 113.60, "province": "广东", "county": "韶关市" },
  "广西_南宁市": { "lat": 22.82, "lng": 108.35, "province": "广西", "county": "南宁市" },
  "广西_桂林市": { "lat": 25.27, "lng": 110.29, "province": "广西", "county": "桂林市" },
  "广西_柳州市": { "lat": 24.33, "lng": 109.42, "province": "广西", "county": "柳州市" },
  "福建_福州市": { "lat": 26.07, "lng": 119.32, "province": "福建", "county": "福州市" },
  "福建_厦门市": { "lat": 24.48, "lng": 118.09, "province": "福建", "county": "厦门市" },
  "福建_泉州市": { "lat": 24.91, "lng": 118.59, "province": "福建", "county": "泉州市" },
  "台湾_台北市": { "lat": 25.03, "lng": 121.57, "province": "台湾", "county": "台北市" },
  "台湾_台南市": { "lat": 23.00, "lng": 120.20, "province": "台湾", "county": "台南市" },
  "台湾_高雄市": { "lat": 22.63, "lng": 120.30, "province": "台湾", "county": "高雄市" },
  "河南_郑州市": { "lat": 34.75, "lng": 113.63, "province": "河南", "county": "郑州市" },
  "河南_开封市": { "lat": 34.80, "lng": 114.35, "province": "河南", "county": "开封市" },
  "河南_洛阳市": { "lat": 34.62, "lng": 112.45, "province": "河南", "county": "洛阳市" },
  "河南_南阳市": { "lat": 33.00, "lng": 112.53, "province": "河南", "county": "南阳市" },
  "山东_济南市": { "lat": 36.65, "lng": 117.00, "province": "山东", "county": "济南市" },
  "山东_青岛市": { "lat": 36.07, "lng": 120.38, "province": "山东", "county": "青岛市" },
  "山东_烟台市": { "lat": 37.53, "lng": 121.40, "province": "山东", "county": "烟台市" },
  "山东_潍坊市": { "lat": 36.70, "lng": 119.10, "province": "山东", "county": "潍坊市" },
  "山东_临沂市": { "lat": 35.05, "lng": 118.35, "province": "山东", "county": "临沂市" },
  "山西_太原市": { "lat": 37.87, "lng": 112.53, "province": "山西", "county": "太原市" },
  "山西_大同市": { "lat": 40.08, "lng": 113.30, "province": "山西", "county": "大同市" },
  "山西_长治市": { "lat": 36.20, "lng": 113.12, "province": "山西", "county": "长治市" },
  "陕西_西安市": { "lat": 34.27, "lng": 108.95, "province": "陕西", "county": "西安市" },
  "陕西_延安市": { "lat": 36.60, "lng": 109.48, "province": "陕西", "county": "延安市" },
  "陕西_宝鸡市": { "lat": 34.38, "lng": 107.15, "province": "陕西", "county": "宝鸡市" },
  "甘肃_兰州市": { "lat": 36.05, "lng": 103.82, "province": "甘肃", "county": "兰州市" },
  "甘肃_酒泉市": { "lat": 39.73, "lng": 98.50, "province": "甘肃", "county": "酒泉市" },
  "甘肃_天水市": { "lat": 34.58, "lng": 105.72, "province": "甘肃", "county": "天水市" },
  "河北_天津市": { "lat": 39.13, "lng": 117.20, "province": "河北", "county": "天津市" },
  "河北_保定市": { "lat": 38.87, "lng": 115.48, "province": "河北", "county": "保定市" },
  "河北_石家庄市": { "lat": 38.03, "lng": 114.50, "province": "河北", "county": "石家庄市" },
  "河北_唐山市": { "lat": 39.63, "lng": 118.18, "province": "河北", "county": "唐山市" },
  "河北_秦皇岛": { "lat": 39.93, "lng": 119.60, "province": "河北", "county": "秦皇岛" },
  "河北_邯郸市": { "lat": 36.62, "lng": 114.47, "province": "河北", "county": "邯郸市" },
  "辽宁_沈阳市": { "lat": 41.80, "lng": 123.43, "province": "辽宁", "county": "沈阳市" },
  "辽宁_大连市": { "lat": 38.92, "lng": 121.62, "province": "辽宁", "county": "大连市" },
  "辽宁_锦州市": { "lat": 41.13, "lng": 121.13, "province": "辽宁", "county": "锦州市" },
  "吉林_长春市": { "lat": 43.88, "lng": 125.32, "province": "吉林", "county": "长春市" },
  "吉林_吉林市": { "lat": 43.88, "lng": 126.55, "province": "吉林", "county": "吉林市" },
  "黑龙江_哈尔滨市": { "lat": 45.75, "lng": 126.63, "province": "黑龙江", "county": "哈尔滨市" },
  "黑龙江_大庆市": { "lat": 46.60, "lng": 125.10, "province": "黑龙江", "county": "大庆市" },
  "北京_北京市": { "lat": 39.90, "lng": 116.40, "province": "北京", "county": "北京市" },
  "上海_上海市": { "lat": 31.23, "lng": 121.47, "province": "上海", "county": "上海市" },
  "重庆_重庆市": { "lat": 29.55, "lng": 106.55, "province": "重庆", "county": "重庆市" },
  "内蒙古_呼和浩特": { "lat": 40.82, "lng": 111.65, "province": "内蒙古", "county": "呼和浩特" },
  "新疆_乌鲁木齐": { "lat": 43.80, "lng": 87.60, "province": "新疆", "county": "乌鲁木齐" },
  "西藏_拉萨市": { "lat": 29.65, "lng": 91.12, "province": "西藏", "county": "拉萨市" },
  "青海_西宁市": { "lat": 36.62, "lng": 101.78, "province": "青海", "county": "西宁市" },
  "宁夏_银川市": { "lat": 38.47, "lng": 106.27, "province": "宁夏", "county": "银川市" },
  "海南_海口市": { "lat": 20.02, "lng": 110.35, "province": "海南", "county": "海口市" },
  "香港": { "lat": 22.30, "lng": 114.17, "province": "广东", "county": "香港" },
  "澳门": { "lat": 22.20, "lng": 113.55, "province": "广东", "county": "澳门" }
}